{
  "type": "FeatureCollection",
  "features": [{
    "type": "Feature",
    "geometry": {
      "type": "Point",
      "coordinates": [-59.9201, 2.50803]
    },
    "properties": {
      "image": "assets/s/bokobokoin-daap.jpg",
      "title": "Bokobokoin daap",
      "date": "2016-02-28T07:00:00.000Z",
      "type": "crossing",
      "description": "Constructed and graded illegal river crossing on the Takatu River: used by rustlers and illegal sports hunters"
    }
  }, {
    "type": "Feature",
    "geometry": {
      "type": "Point",
      "coordinates": [-59.97386, 2.66825]
    },
    "properties": {
      "image": "assets/s/bai-wao-paawa.jpg",
      "title": "Bai wao paawa",
      "date": "2014-10-14T07:00:00.000Z",
      "type": "crossing",
      "description": "Very active motor vehicle and bicycle crossing on the Upper Takatu: used by illegal hunters and illegal miners entering Wapichan territory"
    }
  }, {
    "type": "Feature",
    "geometry": {
      "type": "Point",
      "coordinates": [-59.98376, 2.85068]
    },
    "properties": {
      "image": "",
      "title": "Dois fermao",
      "date": "2015-03-03T07:00:00.000Z",
      "type": "crossing",
      "description": "Illegal cattle crossing of Takatu used by Brazilian ranchers and rustlers"
    }
  }, {
    "type": "Feature",
    "geometry": {
      "type": "Point",
      "coordinates": [-59.16289, 2.24038]
    },
    "properties": {
      "image": "assets/s/marudi-ground-sluice.jpg",
      "title": "Marudi ground sluice",
      "date": "2017-06-26T07:00:00.000Z",
      "type": "mining",
      "description": "Miners are using another method of mining, called a ground sluice, by placing the box in the drain to trap gold."
    }
  }, {
    "type": "Feature",
    "geometry": {
      "type": "Point",
      "coordinates": [-59.62253, 1.97324]
    },
    "properties": {
      "image": "assets/s/wakoda-naawa.jpg",
      "title": "Wakoda Naawa",
      "date": "2013-10-16T14_17_11_000Z",
      "type": "mining",
      "description": "Brazilian (illegal) miners working on creek bed are causing deforestation, destroying gathering grounds and generating serious water pollution in creeks and the Takatu River"
    }
  }, {
    "type": "Feature",
    "geometry": {
      "type": "Point",
      "coordinates": [-59.58544, 2.00864]
    },
    "properties": {
      "image": "assets/s/dadabwao-wako-danaa.jpg",
      "title": "Dadabwao wako danaa",
      "date": "2016-03-14T07:00:00.000Z",
      "type": "mining",
      "description": "Major forest destruction, severe damage to creek beds and water pollution by illegal Brazilian and Guyanese miners all leading to scarcity of game and fish and lack of clean water (creek destroyed right to its source)"
    }
  }, {
    "type": "Feature",
    "geometry": {
      "type": "Point",
      "coordinates": [-59.614722, 1.97167]
    },
    "properties": {
      "image": "assets/s/sowan-wao-1.jpg",
      "title": "Sowan wao (Wakadanawa)",
      "date": "2016-03-16T07:00:00.000Z",
      "type": "mining",
      "description": "Creek bed mining. The creek cannot be identified any more."
    }
  }, {
    "type": "Feature",
    "geometry": {
      "type": "Point",
      "coordinates": [-59.63083, 1.96778]
    },
    "properties": {
      "image": "assets/s/sowan-wao-2.jpg",
      "title": "Sowan wao (Wakadanawa)",
      "date": "2016-03-16T07:00:00.000Z",
      "type": "mining",
      "description": "Brazilian miners working out a creek bed, nothing but grass is left growing."
    }
  }, {
    "type": "Feature",
    "geometry": {
      "type": "Point",
      "coordinates": [-59.20475, 2.02477]
    },
    "properties": {
      "image": "",
      "title": "Channa Creek (Parabara)",
      "date": "2016-09-18T07:00:00.000Z",
      "type": "mining",
      "description": "Distruction caused by miners in Channa Creek, brazil nut gathering ground of the Parabaz Village."
    }
  }, {
    "type": "Feature",
    "geometry": {
      "type": "Point",
      "coordinates": [-59.14805, 2.21293]
    },
    "properties": {
      "image": "assets/s/tucan-creek.jpg",
      "title": "Tucan Creek",
      "date": "2016-01-02T07:00:00.000Z",
      "type": "mining",
      "description": "Deforestation and creek bed destruction caused by mining in Tucan Creek (Marudi mining zone)"
    }
  }, {
    "type": "Feature",
    "geometry": {
      "type": "Point",
      "coordinates": [-59.1841927, 2.1945847]
    },
    "properties": {
      "image": "assets/s/lucas-creek.jpg",
      "title": "Lucas Creek",
      "date": "2016-01-02T07:00:00.000Z",
      "type": "mining",
      "description": "Destruction of Lucas creek bed by Guyanese and Brazilian miners (Marudi Mining Zone)"
    }
  }, {
    "type": "Feature",
    "geometry": {
      "type": "Point",
      "coordinates": [-59.168966, 2.2176336]
    },
    "properties": {
      "image": "assets/s/mazao-mountain.jpg",
      "title": "Mazao Mountain",
      "date": "2016-01-02T07:00:00.000Z",
      "type": "mining",
      "description": "Excavation of the Mazao Mountain for gold quartz by Miners causing widespread damage to this watershed."
    }
  }, {
    "type": "Feature",
    "geometry": {
      "type": "Point",
      "coordinates": [ -58.618, 2.469639]
    },
    "properties": {
      "image": "assets/s/riiwao.jpg",
      "title": "Riiwao",
      "date": "2016-07-24T07:00:00.000Z",
      "type": "monitoring",
      "description": "Monitoring of the upper Riiwao, a vital gathering area for a lot of forest edge communities. "
    }
  }, {
    "type": "Feature",
    "geometry": {
      "type": "Point",
      "coordinates": [-59.339493, 3.31212]
    },
    "properties": {
      "image": "assets/s/rupununi-turtle-eggs.jpg",
      "title": "Turtle eggs, Rupununi River",
      "date": "2015-06-01T07:00:00.000Z",
      "type": "monitoring",
      "description": "South Rupununi District Council  monitors check river tuttle nests on the banks of the Rupunini at the request of the SandCreek Village in February 2015"
    }
  }]
}
